Prospect Name,Great Streets Corridor,Official Amount,Fiscal Year,Business Address,City,State,Zip Code,NAIC codes,Business Type,Ward,Latitude,Longitude,Total Number of Projected/Retained Jobs,Total Projected Number of Jobs,Total Number of Employees Retained
Ask Investment Corp dba Dollar Plus Savings,7th St NW/Georgia Avenue NW,"$85,000.00 ",2013,1547 7th Street NW,Washington,DC,20001,44-45,Convenience Store,Ward 6,38.91093,-77.02172,4,0,4
"Compass Coffee, LLC dba Compass Coffee",7th St NW/Georgia Avenue NW,"$85,000.00 ",2014,1535 7th Street NW,Washington,DC,20001,72,Coffee Shop,Ward 6,38.91062,-77.02158,24,24,
Ivy & Coney,7th St NW/Georgia Avenue NW,"$85,000.00 ",2014,1537 7th Street NW,Washington,DC,20001,72,Restaurant,Ward 6,38.91066,-77.02158,48,24,24
Gwynn Inc. dba Halcyon,7th St NW/Georgia Avenue NW,"$85,000.00 ",2014,1326 8th Street NW,Washington,DC,20001,81,Salon/Barbershop,Ward 6,38.90804,-77.02319,8,8,0
Henderson Enterprise dba Wanda's on 7th,7th St NW/Georgia Avenue NW,"$74,719.28 ",2014,1851 7th Street NW,Washington,DC,20001,81,Salon/Barbershop,Ward 1,38.91533,-77.02166,54,22,32
"Pekoe Acupuncture and Wellness Center, PLLC",7th St NW/Georgia Avenue NW,"$85,000.00 ",2014,1410 9th Street NW Suite 1,Washington,DC,20001,71,Wellness Center,Ward 2,38.90903,-77.02419,19,7,12
Beyond Collective LLC dba Beyond Collective,7th St NW/Georgia Avenue NW,"$35,000.00 ",2016,"1240 9th Street NW, Suite 100",Washington,DC,20001,54,Creative Production Agency,Ward 2,38.90678,-77.02428,69,69,0
"Rito Loco, LLC",7th St NW/Georgia Avenue NW,"$85,000.00 ",2016,606 Florida Avenue NW,Washington,DC,20001,72,Fast Casual Resturant,Ward 6,38.91538,-77.0203,16,7,9
"MPH Solutions Group, LLC dba Reformation Fitness",7th St NW/Georgia Avenue NW,"$50,000.00 ",2016,1218 9th Street NW,Washington,DC,20001,71,Fitness Studio,Ward 2,38.90634,-77.02437,38,15,23
"Mimi and D, LLC dba PH9 Restaurant",7th St NW/Georgia Avenue NW,"$85,000.00 ",2016,1318 9th Street NW,Washington,DC,20001,72,Restaurant,Ward 2,38.90792,-77.02426,23,16,7
"John Coulton dba Yang Fire, LLC",7th St NW/Georgia Avenue NW,"$70,000.00 ",2016,1414 9th Street NW,Washington,DC,20001,72,Restaurant,Ward 2,38.90914,-77.02418,25,25,
"Beau Thai Shaw, LLC",7th St NW/Georgia Avenue NW,"$57,333.75 ",2016,1550 7th Street NW,Washington,DC,20001,72,Restaurant,Ward 6,38.91036,-77.02219,49,43,6
"Abal, LLC t/a Chercher Ethiopian Restaurant and Mart",7th St NW/Georgia Avenue NW,"$41,296.00 ",2016,1334 9th Street NW,Washington,DC,20001,72,Restaurant and Market,Ward 2,38.908365,-77.024165,9,5,4
"SiTea, LLC dba SiTea Teas and Treats (Calabash)",7th St NW/Georgia Avenue NW,"$60,122.09 ",2016,1847 7th Street NW,Washington,DC,20001,72,Teahouse/Vegetarian Cafe/Retail Shop,Ward 1,38.91522,-77.02172,38,28,10
"Contactually, Inc.",7th St NW/Georgia Avenue NW,"$64,629.00 ",2016,1005 7th Street NW Ste 100,Washington,DC,20001,54,Technology (Software as a Service),Ward 6,38.90331,-77.02162,130,100,30
Florida Avenue Grill,7th St NW/Georgia Avenue NW,"$49,500.00 ",2016,1100 Florida Avenue NW,Washington,DC,20009,72,Restaurant,Ward 1,38.92062,-77.02738,25,11,14
"Off Road Cycling, LLC",7th St NW/Georgia Avenue NW,"$85,000.00 ",2014,905 U Street NW,Washington,DC,20009,71,Bicycle Store,Ward 1,38.91716,-77.02432,0,,
D&G Enterprises of Washington dba Central Communications,7th St NW/Georgia Avenue NW,"$85,000.00 ",2014,1915 7th Street NW,Washington,DC,20001,51,Internet Service Provider,Ward 1,38.91606,-77.02174,3,3,0
Bouche LLC dba 1905 Bistro,7th St NW/Georgia Avenue NW,"$85,000.00 ",2014,1905 9th Street NW,Washington,DC,20001,72,Restaurant/Eatery,Ward 1,38.91594,-77.02373,9,9,
DigiDoc Inc dba Document Managers,7th St NW/Georgia Avenue NW,"$85,000.00 ",2014,"510 Florida Avenue, NW",Washington,DC,20001,54,Technology (Software as a Service),Ward 6,38.91499,-77.01935,0,,
"iStrategyLabs, LLC",7th St NW/Georgia Avenue NW,"$70,000.00 ",2015,641 S Street NW,Washington,DC,20001,54,Digital Marketing,Ward 1,38.91431,-77.0211,137,82,55
"WandaWoman Enterprises, Inc.dba Work It! Studio",7th St NW/Georgia Avenue NW,"$50,000.00 ",2016,1020 U Street NW,Washington,DC,20001,71,Dance Studio,Ward 1,38.91685,-77.02664,15,,15
C. Alan Systems dba C. Alan Signature Salon,7th St NW/Georgia Avenue NW,"$40,000.00 ",2016,705 Florida Avenue NW,Washington,DC,20001,81,Hair Salon,Ward 1,38.91661,-77.02227,19,8,11
"Etete Restaurant Cuisine, Inc.",7th St NW/Georgia Avenue NW,"$30,000.00 ",2016,1942 9th Street NW,Washington,DC,20001,72,Restaurant,Ward 1,38.91675,-77.02423,30,13,17
"Fit Physique, Inc. dba City Fitness Gym",Connecticut Ave NW,"$85,000.00 ",2014,3525 Connecticut Avenue NW,Washington,DC,20008,71,Gym,Ward 3,38.93639,-77.05849,11,11,
Dakshin dba Indique,Connecticut Ave NW,"$85,000.00 ",2014,3512 Connecticut Avenue NW,Washington,DC,20008,72,Restaurant/Eatery,Ward 3,38.93602,-77.05908,14,7,7
"Remarkable Breads, LLC dba Bread Furst",Connecticut Ave NW,"$85,000.00 ",2015,4434 Connecticut Avenue NW,Washington,DC,20008,72,Restaurant/Eatery,Ward 3,38.94747,-77.06593,50,12,38
"Acacia Skylan, Inc. dba Acacia Bistro",Connecticut Ave NW,"$40,000.00 ",2016,4340 Connecticut Avenue NW,Washington,DC,20008,72,Restaurant,Ward 3,38.94621,-77.06522,30,22,8
"DC Stars, LLC dba DC Stars",Connecticut Ave NW,"$40,000.00 ",2016,3420 Georgia Avenue NW,Washington,DC,20010,44-45,Conviencence Store,Ward 1,38.93256,-77.02412,7,4,3
"Solneb, Inc. dba 14th Mini Market",Georgia Avenue NW,"$50,000.00 ",2016,3904 14th Street NW,Washington,DC,20011,44-45,Conviencence Store,Ward 4,38.93882,-77.03304,7,5,2
Bright Start Childcare,Georgia Avenue NW,"$85,000.00 ",2013,5416 Georgia Avenue NW,Washington,DC,20011,62,Child Development Center,Ward 4,38.95576,-77.02817,12,,12
"Stop & Go Market, LLC",Georgia Avenue NW,"$85,000.00 ",2013,3001 Sherman Avenue NW,Washington,DC,20001,44-45,Convenience Store,Ward 1,38.92797,-77.02583,0,,0
Baba's Cooking School dba EatsPlace,Georgia Avenue NW,"$85,000.00 ",2013,3607 Georgia Avenue NW,Washington,DC,20010,54,Culinary/restaurant Incubator,Ward 1,38.93478,-77.0238,7,0,7
Three Little Pigs Charcuterie & Salumi,Georgia Avenue NW,"$62,500.00 ",2013,5111 Georgia Avenue NW,Washington,DC,20011,72,Delicatessen,Ward 4,38.95234,-77.02727,5,,5
Rufael Inc. dba Missouri Avenue Market,Georgia Avenue NW,"$62,022.80 ",2013,5900 Georgia Avenue NW,Washington,DC,20011,44-45,Grocery Store,Ward 4,38.96152,-77.02843,3,,3
"Upshur Books, LLC",Georgia Avenue NW,"$80,241.00 ",2014,827 Upshur Street NW,Washington,DC,20011,44-45,Book Store,Ward 4,38.94209,-77.02442,0,,
Willow DC,Georgia Avenue NW,"$85,000.00 ",2014,843 Upshur Street NW,Washington,DC,20011,44-45,Clothing Store,Ward 4,38.94207,-77.0246,2,1,1
Buxton Glory International Market,Georgia Avenue NW,"$83,250.00 ",2014,4013 Georgia Avenue NW,Washington,DC,20011,44-45,Grocery Market,Ward 4,38.94021,-77.02472,6,3,3
"Lofft Contractors, Inc.",Georgia Avenue NW,"$85,000.00 ",2014,616 Kennedy Street NW,Washington,DC,20011,54,Home Improvement,Ward 4,38.95621,-77.02171,4,4,
"Jessica Stuart Media, Inc. dba Long Story Short",Georgia Avenue NW,"$85,000.00 ",2014,2830 Georgia Avenue NW,Washington,DC,20001,54,Media Production,Ward 1,38.92699,-77.02321,13,7,6
Imagine Photography,Georgia Avenue NW,"$85,000.00 ",2014,3717 Georgia Avenue NW,Washington,DC,20010,71,Photography Studio,Ward 4,38.93728,-77.02421,6,3,3
"Georgia Avenue Media Lounge, LLC dba York Patio",Georgia Avenue NW,"$85,000.00 ",2014,3632 Georgia Avenue NW,Washington,DC,20010,72,Restaurant/Eatery,Ward 1,38.93497,-77.02439,1,1,0
"Mani's Cafe & Market, LLC",Georgia Avenue NW,"$85,000.00 ",2014,"5230 Georgia Avenue NW, Unit # 3",Washington,DC,20011,72,Restaurant/Eatery,Ward 4,38.95478,-77.02808,2,2,0
Culture Coffee,Georgia Avenue NW,"$14,500.00 ",2014,709 Kennedy Street NW,Washington,DC,20011,72,Restaurant/Eatery,Ward 4,38.95653,-77.02276,4,2,2
Aboil Café,Georgia Avenue NW,"$85,000.00 ",2014,5503 Georgia Avenue NW,Washington,DC,20011,72,Restaurant/Eatery,Ward 4,38.956431,-77.02785,14,7,7
"The Maskari Group, LLC",Georgia Avenue NW,"$85,000.00 ",2014,1755 Lanier Pl NW,Washington,DC,20009,72,Restaurant/Eatery,Ward 4,38.93914,-77.02453,33,33,
Renee by Boddie's,Georgia Avenue NW,"$85,000.00 ",2014,3505 Georgia Avenue NW,Washington,DC,20010,81,Salon/Barbershop,Ward 1,38.93316,-77.02358,0,0,0
J & C Unisex Barbershop,Georgia Avenue NW,"$80,551.12 ",2014,3545 Georgia Avenue NW,Washington,DC,20010,81,Salon/Barbershop,Ward 1,38.93402,-77.02373,4,2,2
Rogers L Lewis Jr DBA Head LLC dba Head to Toe,Georgia Avenue NW,"$85,000.00 ",2014,3929 Georgia Avenue NW,Washington,DC,20011,81,Salon/Barbershop,Ward 4,38.93948,-77.02462,5,5,0
African Hair Braiding,Georgia Avenue NW,"$68,500.00 ",2014,3553 Georgia Avenue NW,Washington,DC,20010,81,Salon/Barbershop,Ward 1,38.93422,-77.02374,10,5,5
Grace Filled Hands Hair Studio,Georgia Avenue NW,"$84,490.00 ",2014,5300 Georgia Avenue NW,Washington,DC,20011,81,Salon/Barbershop,Ward 4,38.95425,-77.02792,12,6,6
"Bikram Yoga Petworth, LLC",Georgia Avenue NW,"$85,000.00 ",2014,3232 Georgia Avenue NW,Washington,DC,20010,71,Yoga Studio,Ward 1,38.93081,-77.02378,5,5,0
"SRH, Inc.dba Mr. Gee's Car Wash",Georgia Avenue NW,"$85,000.00 ",2015,6315 Georgia Ave NW,Washington,DC,20002,81,Car Wash,Ward 4,38.96662,-77.02706,24,13,11
"De Colores Learning Center, Inc.",Georgia Avenue NW,"$85,000.00 ",2015,6216 Third Street NW,Washington,DC,20011,62,Child Development Denter,Ward 4,38.96554,-77.01641,25,7,18
"MB Arts and Productions, LLC dba Dance Loft on 14",Georgia Avenue NW,"$85,000.00 ",2015,"4618 14th Street NW, 2nd Floor",Washington,DC,20011,71,Dance Studio,Ward 4,38.94673,-77.03299,54,54,
"Four Brothers Custom Carpentry, LLC",Georgia Avenue NW,"$85,000.00 ",2015,4009 Georgia Avenue NW,Washington,DC,20011,54,Design-build Firm,Ward 4,38.94011,-77.0247,8,8,
"BEDD Group, LLC",Georgia Avenue NW,"$85,000.00 ",2015,6143 Georgia Avenue NW,Washington,DC,20011,54,Design-build Firm,Ward 4,38.9648,-77.02746,23,18,5
"B and W Stat Laboratory, Inc",Georgia Avenue NW,"$85,000.00 ",2015,3104 Georgia Avenue NW,Washington,DC,20010,62,Medical Laboratory,Ward 1,38.92931,-77.02353,9,2,7
"Curtis Equipment, Inc.",Georgia Avenue NW,"$77,450.00 ",2015,5514 Colorado Avenue NW,Washington,DC,20011,44-45,Retail Commercial Kitchen/Restaurant Equipment,Ward 4,38.95707,-77.03291,4,4,0
"Amar Group, LLC",Georgia Avenue NW,"$30,000.00 ",2016,"6230 Third Street NW, Suite 4",Washington,DC,20011,54,Architecture/Civil Engineering/Certified Third Party Inspection Agency,Ward 4,38.96595,-77.01646,14,5,9
"Crown Bakery, LLC",Georgia Avenue NW,"$50,000.00 ",2016,5409 Georgia Avenue NW,Washington,DC,20011,72,Bakery,Ward 4,38.95551,-77.0277,15,10,5
Sankofa Video and Books,Georgia Avenue NW,"$50,000.00 ",2016,2714 - A  Georgia Avenue NW,Washington,DC,20001,44-45,Book Store,Ward 1,38.92557,-77.0231,8,6,2
Curtis Restaurant Equipment LLC dba Piola Café,Georgia Avenue NW,"$85,000.00 ",2016,5516 Colorado Avenue NW,Washington,DC,20011,72,Café,Ward 4,38.95712,-77.03287,8,2,6
Details Corp,Georgia Avenue NW,"$70,000.00 ",2016,2851 Georgia Ave NW,Washington,DC,20011,72,Catering / Take out Restaurant,Ward 1,38.9272,-77.02272,36,14,22
"Goldies 2, LLC",Georgia Avenue NW,"$85,000.00 ",2016,6234 Third Street NW,Washington,DC,20011,62,Child Development Center,Ward 4,38.96597,-77.01637,24,8,16
"Second Wind Training, LLC dba Second Wind Training",Georgia Avenue NW,"$37,990.00 ",2016,5509 14th Street NW,Washington,DC,20011,71,CrossFit Gym,Ward 4,38.95709,-77.0332,8,8,0
"Salsa With Silvia, LLC",Georgia Avenue NW,"$85,000.00 ",2016,3622 Georgia Avenue NW,Washington,DC,20010,71,Dance Studio,Ward 1,38.93472,-77.02431,33,15,18
Peaches Kitchen Restaurant & Catering,Georgia Avenue NW,"$85,000.00 ",2016,6214 Third Street NW,Washington,DC,20011,72,Dine-in Restaurant/Catering Service,Ward 4,38.96549,-77.01641,16,8,8
"Twist and Turns Body Fitness, LLC",Georgia Avenue NW,"$84,142.77 ",2016,"5521 Colorado Avenue NW, Unit #3",Washington,DC,20011,71,Fitness Studio,Ward 4,38.95695,-77.03213,11,8,3
"CrossFit Petworth, LLC dba CrossFit Petworth",Georgia Avenue NW,"$20,000.00 ",2016,1240 Upshur Street NW,Washington,DC,20011,71,Fitness Studio,Ward 4,38.94158,-77.02777,19,12,7
Bodega Inc. dba The Cupboard,Georgia Avenue NW,"$56,858.00 ",2016,702 Kennedy Street NW,Washington,DC,20011,44-45,Food Grocery Market,Ward 4,38.95618,-77.02256,6,6,0
"Super Saver Grocery and Deli, Inc. dba Super Saver Grocery and Deli",Georgia Avenue NW,"$50,000.00 ",2016,4413 14th Street NW,Washington,DC,20011,44-45,Grocery/Deli,Ward 4,38.9447,-77.03245,10,7,3
"Natural Motion by Liz, Inc.",Georgia Avenue NW,"$85,000.00 ",2016,5332 Georgia Avenue NW,Washington,DC,20011,81,Hair Salon and Spa,Ward 4,38.95498,-77.02807,58,33,25
General Services Inc.,Georgia Avenue NW,"$59,050.00 ",2016,3611-13 Georgia Avenue NW,Washington,DC,20010,54,Neighborhood Business Center,Ward 1,38.93487,-77.02383,10,3,7
"Romi Rome Productions, LLC dba Morgan's Seafood",Georgia Avenue NW,"$49,590.00 ",2016,3200 Georgia Avenue NW,Washington,DC,20010,72,Restaurant,Ward 1,38.9302,-77.02364,3,2,1
Johanas Restaurant,Georgia Avenue NW,"$50,000.00 ",2016,4728 14th Street NW,Washington,DC,20011,72,Restaurant,Ward 4,38.94801,-77.03307,14,12,2
"Micherie, LLC dba Cheerz Sports Grill",Georgia Avenue NW,"$79,800.00 ",2016,7303 Georgia Avenue NW,Washington,DC,20012,72,Restaurant,Ward 4,38.9785,-77.02618,15,7,8
"El Don, LLC",Georgia Avenue NW,"$50,000.00 ",2016,4401 14th St NW,Washington,DC,20011,72,Restaurant,Ward 4,38.94419,-77.03248,15,12,3
"Timber Pizza Company, LLC dba Timber Pizza Company",Georgia Avenue NW,"$50,000.00 ",2016,809 Upshur Street NW,Washington,DC,20011,72,Restaurant,Ward 4,38.94211,-77.02383,34,34,0
"Annie's Hardware, LLC",Georgia Avenue NW,"$72,000.00 ",2016,"1240 Upshur Street, NW",Washington,DC,20011,44-45,Retail Hardware Store,Ward 4,38.94163,-77.02769,45,10,35
Stella*s PopKern,Georgia Avenue NW,"$50,000.00 ",2016,4414 Georgia Avenue NW,Washington,DC,20011,44-45,Retail Popcorn Shop,Ward 4,38.94463,-77.02661,10,6,4
Le Chic Salon,Georgia Avenue NW,"$50,000.00 ",2016,3634 Georgia Ave NW,Washington,DC,20010,81,Salon,Ward 1,38.93502,-77.02436,13,9,4
Joseph's Barber Shop,Georgia Avenue NW,"$37,900.00 ",2016,2624 Georgia Avenue NW,Washington,DC,20011,81,Salon/Barber,Ward 1,38.92491,-77.0229,13,13,0
"Metro Lab, LLC dba Metro Lab",Georgia Avenue NW,"$47,371.00 ",2016,3422 Georgia Avenue NW,Washington,DC,20010,62,Testing Laboratory,Ward 1,38.93261,-77.02416,8,7,1
"Ruta del Vino, LLC",Georgia Avenue NW,"$50,000.00 ",2016,800 Upshur Street NW,Washington,DC,20001,72,Restaurant/Eatery,Ward 4,38.94175,-77.02353,27,22,5
The Davis Center,Georgia Avenue NW,"$85,000.00 ",2016,6218 Third Street NW,Washington,DC,20011,71,Dance Center with Arts Education,Ward 4,38.96559,-77.01641,18,11,7
"The Doghouse Companies, LLC dba Domku Bar and Café",Georgia Avenue NW,"$85,000.00 ",2016,821 Upshur Street NW,Washington,DC,20011,72,Restaurant,Ward 4,38.94221,-77.02423,8,8,
"R & R Janitorial, Painting & Building Services Inc.",Georgia Avenue NW,"$85,000.00 ",2014,2849 Georgia Avenue NW,Washington,DC,20001,44-45,Building maintence,Ward 1,38.92716,-77.02272,48,48,0
Gallery O on H,H Street NE - Bladensburg Road NE,"$85,000.00 ",2012,1354 H Street NE,Washington,DC,20002,71,Art Gallery,Ward 6,38.90039,-76.98646,0,,0
Euro Style,H Street NE - Bladensburg Road NE,"$85,000.00 ",2012,1342 H Street NE,Washington,DC,20002,44-45,Clothing Store,Ward 6,38.90044,-76.98684,6,3,3
"Cultivate the City, LLC",H Street NE - Bladensburg Road NE,"$50,000.00 ",2016,910 Bladensburg Road NE,Washington,DC,20001,11,Urban Farming,Ward 5,38.90242,-76.98229,11,9,2
"MFJ, LLC t/a Hunted House",H Street NE - Bladensburg Road NE,"$5,000.00 ",2012,510 H Street NE,Washington,DC,20002,44-45,Antique Store,Ward 6,38.90042,-76.99896,0,0,
"The Daily Rider, LLC dba The Daily Rider",H Street NE - Bladensburg Road NE,"$85,000.00 ",2012,1108 H Street NE,Washington,DC,20002,44-45,Bicycle Store,Ward 6,38.9004,-76.99109,14,7,7
Koffee Boutique,H Street NE - Bladensburg Road NE,"$85,000.00 ",2012,1204 H Street NE,Washington,DC,20002,44-45,Clothing Store,Ward 6,38.90041,-76.98992,0,0,
C.A.T. Walk Boutique,H Street NE - Bladensburg Road NE,"$80,000.00 ",2012,1000 H Street NE,Washington,DC,20002,44-45,Clothing Store,Ward 6,38.90043,-76.99249,6,3,3
Barracks Row Main Street,H Street NE - Bladensburg Road NE,"$27,390.00 ",2012,"731 8th Street SE, Second Floor",Washington,DC,20003,81,Community-based Organization/Technical Assistance Provider,Ward 6,38.880183,-76.995235,0,0,
"H Street Main Street, Inc.",H Street NE - Bladensburg Road NE,"$85,000.00 ",2012,961 H Street NE,Washington,DC,20002,81,Community-based Organization/Technical Assistance Provider,Ward 6,38.90004,-76.99285,0,,
Passion for Fitness,H Street NE - Bladensburg Road NE,"$42,000.00 ",2012,408 H Street NE,Washington,DC,20002,71,Fitness Studio,Ward 6,38.90043,-77.00009,8,4,4
Petigreen LLC dba Metro Mutts,H Street NE - Bladensburg Road NE,"$51,795.00 ",2012,508 H Street NE,Washington,DC,20002,44-45,Pet Store,Ward 6,38.90042,-76.99903,0,0,
H Street Care Pharmacy and Wellness Center,H Street NE - Bladensburg Road NE,"$85,000.00 ",2012,812 H Street NE,Washington,DC,20002,44,Pharmacy,Ward 6,38.90042,-76.99433,12,6,6
Stan's Inc.,H Street NE - Bladensburg Road NE,"$85,000.00 ",2012,822 H Street NE,Washington,DC,20002,44-45,Secondhand Dealers,Ward 6,38.90041,-76.99394,30,15,15
"Atlas Vet Clinic, LLC",H Street NE - Bladensburg Road NE,"$85,000.00 ",2012,1326 H Street NE,Washington,DC,20002,54,Veterinary Clinic,Ward 6,38.90039,-76.98728,12,6,6
Dynamic Health & Wellness,H Street NE - Bladensburg Road NE,"$13,850.00 ",2012,402 H Street NE,Washington,DC,20002,71,Wellness Center,Ward 6,38.90044,-77.00031,0,0,
Studio Group dba Bikram Yoga of Capitol Hill,H Street NE - Bladensburg Road NE,"$83,400.00 ",2012,410 H Street NE,Washington,DC,20002,71,Yoga Studio,Ward 6,38.90046,-77.00002,2,1,1
"RowHouse Company, LLC dba A Childrens' Art Studio and Retail Store",H Street NE - Bladensburg Road NE,"$85,000.00 ",2013,519 H Street NE,Washington,DC,20002,44-45,Children's Art Studio/Retail Store,Ward 6,38.9,-76.99875,3,,3
Integrity Self Movement Arts,H Street NE - Bladensburg Road NE,"$85,000.00 ",2013,1361 H Street NE,Washington,DC,20002,71,Dance Studio,Ward 6,38.9,-76.98632,1,,1
Chez Hareg Market,H Street NE - Bladensburg Road NE,"$85,000.00 ",2013,806 H Street NE,Washington,DC,20002,44-45,Grocery Store,Ward 6,38.90045,-76.99451,7,,7
Charlene Brown t/a Sophizticated Ladyz Hair Salon,H Street NE - Bladensburg Road NE,"$73,095.00 ",2013,1010 H Street NE,Washington,DC,20002,81,Hair Salon,Ward 6,38.90041,-76.99223,0,0,2
Magic Fingers Hair Salon,H Street NE - Bladensburg Road NE,"$85,000.00 ",2013,515 H Street NE,Washington,DC,20002,81,Hair Salon,Ward 6,38.90001,-76.99887,0,0,0
"Designing Things, LLC dba Visionary's Design",H Street NE - Bladensburg Road NE,"$85,000.00 ",2013,1415 H Street NE,Washington,DC,20002,54,Interior Design Firm,Ward 6,38.90004,-76.98494,0,0,0
"Creative Hands Massage, LLC dba CH Wellness Retail Build Out",H Street NE - Bladensburg Road NE,"$75,000.00 ",2013,405 H Street NE,Washington,DC,20002,81,Massage Therapy,Ward 6,38.9,-77.00026,12,,12
Atlas Performing Arts Center,H Street NE - Bladensburg Road NE,"$78,332.26 ",2013,1333 H Street NE,Washington,DC,20002,71,Performing Arts Center,Ward 6,38.89997,-76.98722,30,0,30
Wonder Automotive,H Street NE - Bladensburg Road NE,"$85,000.00 ",2014,1111 Bladensburg Road NE,Washington,DC,20002,81,Auto Repair Services,Ward 5,38.90418,-76.98029,3,3,0
"Maketto, LLC",H Street NE - Bladensburg Road NE,"$85,000.00 ",2014,1351 H Street NE,Washington,DC,20002,44-45,Community Retail Marketplace,Ward 6,38.9,-76.98668,18,18,
MRS Tax Center,H Street NE - Bladensburg Road NE,"$85,000.00 ",2014,418 H Street NE,Washington,DC,20002,54,Financial/Tax Prep Services,Ward 6,38.90038,-76.99977,0,0,
First Choice Masonry,H Street NE - Bladensburg Road NE,"$85,000.00 ",2014,3109 Martin Luther King Jr. Avenue SE,Washington,DC,20032,54,General Contractor,Ward 8,38.84367,-76.99958,33,19,14
Cheviot Heights dba Old City CrossFit,H Street NE - Bladensburg Road NE,"$27,500.00 ",2014,810 H Street NE,Washington,DC,20002,71,Gym,Ward 6,38.90045,-76.9944,3,3,
Proven Strength & Conditioning,H Street NE - Bladensburg Road NE,"$5,722.00 ",2014,1365 H Street NE,Washington,DC,20002,71,Gym,Ward 6,38.9,-76.98621,9,9,0
WellCare Pharmacy,H Street NE - Bladensburg Road NE,"$85,000.00 ",2014,2030 Flagler Place NW,Washington,DC,20001,44,Pharmacy,Ward 8,38.832,-77.00858,0,,
"Wilson-Epes Printing Co., Inc.",H Street NE - Bladensburg Road NE,"$75,849.62 ",2014,775 H Street NE,Washington,DC,20002,54,Printing/Publishing,Ward 6,38.89997,-76.99535,3,3,0
"BPJ Enterprises, Inc. dba Powell's Barber Shop II",H Street NE - Bladensburg Road NE,"$63,725.00 ",2014,1232 H Street NE,Washington,DC,20002,81,Salon/Barbershop,Ward 6,38.90039,-76.98909,7,3,4
Therapeutic Sessions Corporation,H Street NE - Bladensburg Road NE,"$85,000.00 ",2015,1037 Bladensburg Road NE,Washington,DC,20002,62,Health Services,Ward 5,38.90352,-76.98092,12,12,0
Ali Boyz LLC t/a Ben's Chili Bowl,H Street NE - Bladensburg Road NE,"$85,000.00 ",2015,1001 H Street NE,Washington,DC,20002,72,Restaurant,Ward 6,38.89998,-76.99245,84,84,0
"Sticky Fingers Bakery Bistro, LLC",H Street NE - Bladensburg Road NE,"$70,000.00 ",2015,406 H Street NE,Washington,DC,20002,44-45,Retail Bakery/Diner,Ward 6,38.90042,-77.00016,34,0,34
Salon Derche,H Street NE - Bladensburg Road NE,"$41,680.00 ",2015,1387 H Street NE 3rd Floor,Washington,DC,20002,81,Salon/Barbershop,Ward 6,38.90001,-76.9857,13,,13
Liberty Development Corporation dba Otto's Universal Garage,H Street NE - Bladensburg Road NE,"$85,000.00 ",2016,1350 H Street NE,Washington,DC,20002,71,Art Gallery,Ward 6,38.90044,-76.98659,19,0,19
"Millionman Tire, Inc.",H Street NE - Bladensburg Road NE,"$85,000.00 ",2016,2101 Benning Road NE,Washington,DC,20002,81,Auto Body,Ward 7,38.89815,-76.97397,24,,24
"Dollar Store Plus, LLC",H Street NE - Bladensburg Road NE,"$85,000.00 ",2016,824 Bladensburg Road NE,Washington,DC,20002,44-45,Convience Store/Food Market,Ward 5,38.9014,-76.98283,8,4,4
"Abraham Dancil, Jr. DDS",H Street NE - Bladensburg Road NE,"$65,000.00 ",2016,1800 Benning Road NE Suite A,Washington,DC,20002,62,Dentist,Ward 5,38.89932,-76.97734,4,2,2
The Dawn,H Street NE - Bladensburg Road NE,"$85,000.00 ",2016,1803 Benning Road NE,Washington,DC,20002,81,Hair Salon,Ward 6,38.89885,-76.97745,7,0,7
Unity Hair Salon,H Street NE - Bladensburg Road NE,"$80,052.45 ",2016,1102 Bladensburg Road NE,Washington,DC,20002,81,Hair Salon,Ward 5,38.90422,-76.98098,8,0,8
"Union Kitchen, LLC",H Street NE - Bladensburg Road NE,"$50,000.00 ",2016,538 3rd Street NE,Washington,DC,20002,54,Incubator,Ward 6,38.89718,-77.00228,14,3,11
Langston Bar and Grille,H Street NE - Bladensburg Road NE,"$85,000.00 ",2016,"1831 Benning Road, NE",Washington,DC,20002,72,Restaurant,Ward 6,38.89876,-76.97684,5,4,1
"Chupacabra, LLC dba Chupacabra Latin Kitchen & Taqueria",H Street NE - Bladensburg Road NE,"$70,000.00 ",2016,822 H Street NE,Washington,DC,20002,72,Restaurant,Ward 6,38.90041,-76.99394,12,1,11
Steak Ice 1310 H dba Sally's Middle Name,H Street NE - Bladensburg Road NE,"$53,223.41 ",2016,"1320 H Street, NE",Washington,DC,20002,72,Restaurant,Ward 6,38.9004,-76.98747,15,15,0
Ethiopic Restaurant,H Street NE - Bladensburg Road NE,"$34,643.00 ",2016,401 H St NE,Washington,DC,20002,72,Restaurant,Ward 6,38.90003,-77.00039,25,7,18
"Ohio Grille, LLC dba Ohio Grille",H Street NE - Bladensburg Road NE,"$50,000.00 ",2016,1380 H Street NE,Washington,DC,20002,72,Restaurant,Ward 6,38.90037,-76.98572,55,55,0
"Mother Rucker's Subs, LLC",H Street NE - Bladensburg Road NE,"$85,000.00 ",2016,1101 Bladensburg Road NE,Washington,DC,20002,72,Restaurant/Eatery,Ward 5,38.90388,-76.98064,9,4,5
"Major Lu, LLC dba Majors Carry Out",H Street NE - Bladensburg Road NE,"$74,500.00 ",2016,714 H Street NE,Washington,DC,20002,72,Restaurant/Eatery,Ward 6,38.90043,-76.99547,16,0,16
Dangerously Delicious Pies dba Dangerously Delicious DC,H Street NE - Bladensburg Road NE,"$50,000.00 ",2016,1339 H St NE,Washington,DC,20002,44-45,Retail Food,Ward 6,38.89992,-76.98692,0,0,0
"Cirque du Rouge, LLC",H Street NE - Bladensburg Road NE,"$51,032.17 ",2016,416 H Street NE,Washington,DC,20002,81,Tattoo Shop,Ward 6,38.90038,-76.99982,6,,6
"Sagun Consulting, Inc. dba Citi Pizza",H Street NE - Bladensburg Road NE,"$42,515.20 ",2016,504 H Street NE #2,Washington,DC,20002,54,Professional Services,Ward 6,38.90041,-76.99917,7,6,1
DC Conscious,H Street NE - Bladensburg Road NE,"$85,000.00 ",2012,1413 H Street NE,Washington,DC,20002,44-45,Bookstore,Ward 6,38.90004,-76.98502,10,5,5
"Gallery O, LLC dba OH2",H Street NE - Bladensburg Road NE,"$50,000.00 ",2016,1352 H Street NE,Washington,DC,20002,44-45,Retail Gallery and Craft Store,Ward 6,38.90043,-76.98653,16,0,16
"Capitol Services Management, Inc.",Martin Luther King Jr Avenue SE,"$85,000.00 ",2014,3215 Martin Luther King Jr. Avenue SE,Washington,DC,20032,81,Construction Company,Ward 8,38.84302,-77.0013,0,,
"J. Roberts, Inc.",Martin Luther King Jr Avenue SE,"$85,000.00 ",2014,2022 Martin Luther King Jr. Avenue SE,Washington,DC,20020,54,General Contractor,Ward 8,38.86589,-76.9891,4,2,2
National Service Contractors,Martin Luther King Jr Avenue SE,"$85,000.00 ",2014,"2007 Martin Luther King Jr. Avenue SE, Suite B",Washington,DC,20020,54,General Contractor,Ward 8,38.86664,-76.98917,14,7,7
"Gebtri, Inc. dba Uniontown Bar and Grill",Martin Luther King Jr Avenue SE,"$85,000.00 ",2014,2200 Martin Luther King Jr. Avenue SE,Washington,DC,20020,72,Restaurant/Eatery,Ward 8,38.86475,-76.98959,34,17,17
"Nelson's Welding, Inc.",Martin Luther King Jr Avenue SE,"$85,000.00 ",2014,1101 W Street SE,Washington,DC,20020,54,Welding/Iron Works,Ward 8,38.86541,-76.99135,0,,0
Independent Holding Corporation,Martin Luther King Jr Avenue SE,"$85,000.00 ",2015,3200 Martin L. King Jr. AvenueSE,Washington,DC,20032,81,"Property Management, Real Estate Services",Ward 8,38.84266,-77.00077,2,2,0
Jasmine Hair Gallery,Martin Luther King Jr Avenue SE,"$50,000.00 ",2016,2202 Martin Luther King Jr. Avenue SE,Washington,DC,20020,81,Beauty Shop,Ward 8,38.86469,-76.98959,22,16,6
"Success For All Educational Services, LLC dba Baby Einstein Child Development Center",Martin Luther King Jr Avenue SE,"$50,000.00 ",2016,1225 Good Hope Road SE,Washington,DC,20020,62,Child Development,Ward 6,38.86701,-76.98785,0,0,0
"Jewel's New Beginning, LLC dba Jewel's New Beginning Learning Center",Martin Luther King Jr Avenue SE,"$50,000.00 ",2016,3927/35 South Capitol Street SW,Washington,DC,20032,62,Child Learning Center,Ward 8,38.83299,-77.0084,19,13,6
MLK Deli II,Martin Luther King Jr Avenue SE,"$50,000.00 ",2016,3113 Martin Luther King Jr. Avenue SE,Washington,DC,20032,72,Deli,Ward 8,38.84356,-76.99983,8,8,
"Inner City Resources, Inc. dba Inner City Community Resources",Martin Luther King Jr Avenue SE,"$50,000.00 ",2016,3923 South Capitol Street SW,Washington,DC,20032,44-45,Organic Food Store,Ward 8,38.832,-77.00858,3,1,2
"Creative Places, LLC dba Rita's Italian Shaved Ice",Martin Luther King Jr Avenue SE,"$50,000.00 ",2016,3109 Martin Luther King Jr. Avenue SE,Washington,DC,20032,72,Restaurant/Eatery,Ward 8,38.84367,-76.99958,0,0,0
"Washington Business Group, Inc.",Martin Luther King Jr Avenue SE,"$85,000.00 ",2014,2759 Martin Luther King Jr. Avenue SE,Washington,DC,20032,54,"Architecture, Engineering/Construction Management",Ward 8,38.84664,-76.99662,22,11,11
Kraft Studio,Martin Luther King Jr Avenue SE,"$85,000.00 ",2014,1239 Good Hope Road SE,Washington,DC,20020,71,Art Studio/Gallery,Ward 8,38.86702,-76.98741,3,3,
"Grubb's Pharmacy SE, Inc.",Martin Luther King Jr Avenue SE,"$83,294.41 ",2014,1800 Martin Luther King Jr. Avenue SE,Washington,DC,20020,44-45,Retail Pharmacy,Ward 8,38.86752,-76.98808,12,6,6
"Murphy’s Auto Body Services, Inc.",Martin Luther King Jr Avenue SE,"$61,600.00 ",2015,1708 Good Hope Road SE,Washington,DC,20020,81,Auto Repair Services,Ward 8,38.86612,-76.98018,17,13,4
Bloomingdale Partners LLC dba NURISH Food + Drink,Martin Luther King Jr Avenue SE,"$85,000.00 ",2014,"1231 Good Hope Road SE, Units 6 & 7",Washington,DC,20020,72,Restaurant/Eatery,Ward 8,38.86696,-76.98769,10,10,0
Georgene Thompson dba S&G Catering & Players Lounge,Martin Luther King Jr Avenue SE,"$50,000.00 ",2016,2737 Martin Luther King Jr Avenue SE,Washington,DC,20032,72,Restaurant,Ward 8,38.84718,-76.99635,22,9,13
"Newton Media Group, LLC dba We Act Radio",Martin Luther King Jr Avenue SE,"$85,000.00 ",2016,1918 Martin Luther King Jr. Avenue SE,Washington,DC,20020,54,Radio/Multi-Media Production,Ward 8,38.86698,-76.98857,5,5,0
Northside Medical Service Corporation,Minnesota-Benning SE,"$45,330.00 ",2014,4121 Minnesota Avenue NE,Washington,DC,20019,62,Health Services,Ward 7,38.8982,-76.9463,4,2,2
"East River Bagel, Inc. dba Eclectic Café",Minnesota-Benning SE,"$85,000.00 ",2014,4058 Minnesota Avenue NE,Washington,DC,20019,72,Restaurant/Eatery,Ward 7,38.89697,-76.94786,14,7,7
Washington Parks & People - Riverside Healthy Living Center,Nannie Helen Burroughs Avenue SE,"$23,300.00 ",2013,5200 Foote Street NE,Washington,DC,20019,54,Business Incubator/Training center,Ward 7,38.89731,-76.92562,7,0,7
Taylormade Business Centers,Nannie Helen Burroughs Avenue SE,"$23,300.00 ",2013,4645 Nannie Helen Burroughs Avenue NE,Washington,DC,20019,54,Shared Office Space,Ward 7,38.89887,-76.93435,7,,7
Fabulous Kids Child Development Center at Nannie Helen Burroughs,Nannie Helen Burroughs Avenue SE,"$81,928.00 ",2014,1505 1st Street SW,Washington,DC,20024,62,Childcare,Ward 7,38.89858,-76.92594,,,0
Drake Incorporated,Nannie Helen Burroughs Avenue SE,"$85,000.00 ",2014,4315 Sheriff Road NE,Washington,DC,20019,54,General Contractor,Ward 7,38.90261,-76.93958,6,2,4
A. Wash & Associates dba Equipped for Expansion,Nannie Helen Burroughs Avenue SE,"$15,000.00 ",2013,4800 Nannie Helen Burroughs Avenue NE,Washington,DC,20019,54,Electrical Installation/Construction Management,Ward 7,38.899112,-76.933445,34,0,34
"Capital Fresh, Inc. dba MGM Roast Beef",New York Avenue NE,"$85,000.00 ",2014,1905 Brentwood Road NE,Washington,DC,20018,72,Restaurant/Eatery,Ward 5,38.9162,-76.99421,10,10,
Tryst Trading Co. dba Who's Cookin,New York Avenue NE,"$85,000.00 ",2015,2001 Fairview Ave NE,Washington,DC,20002,72,Restaurant/Eatery,Ward 5,38.91384,-76.98852,30,20,10
"Oceanpro Industries, LTD dba Profish, Ltd",New York Avenue NE,"$85,000.00 ",2015,1900 Fenwick Street NE,Washington,DC,20002,44-45,Wholesale Seafood Processor/Distributor,Ward 5,38.9142,-76.98474,4,4,0
Great American Corporation dba Dutchmill Catering,New York Avenue NE,"$85,000.00 ",2016,2335 Bladensburg Road NE,Washington,DC,20018,72,Catering/Community Incubator Kitchen/Restaurant,Ward 5,38.92138,-76.96883,45,45,
DC Sharp,New York Avenue NE,"$50,000.00 ",2016,1309 5th Street NE,Washington,DC,20002,44-45,Cooking Knife Retailer,Ward 5,38.90861,-76.99738,20,14,6
"Hecht MRG, LLC dba Ivy City Diner",New York Avenue NE,"$50,000.00 ",2016,1401 New York Avenue NE,Washington,DC,20002,72,Restaurant,Ward 1,38.91533,-76.98461,21,21,0
Ivy City SmokeHouse,New York Avenue NE,"$85,000.00 ",2016,1356 Okie Street NE,Washington,DC,20002,44-45,Retail Store Outlet for Food Manufacturing Plant,Ward 5,38.91463,-76.98555,47,22,25
SouthEast Restaurant Group dba Revive Renewal,North Capitol Street NE,"$79,900.00 ",2013,8 Florida Avenue NW,Washington,DC,20001,72,Catering,Ward 5,38.91078,-77.0094,10,,10
Lot 1644 - Quinn Development,North Capitol Street NE,"$53,000.00 ",2013,1644 North Capitol Street NW,Washington,DC,20002,44-45,Grocery Mart,Ward 5,38.91223,-77.00945,6,,6
"Health IT 2 Business Solutions, LLC",North Capitol Street NE,"$85,000.00 ",2014,1711 North Capitol Street NE,Washington,DC,20002,81,IT services,Ward 5,38.91298,-77.00875,32,5,27
"Lisa Wise dba Nest DC, LLC",North Capitol Street NE,"$85,000.00 ",2014,87 Florida Ave NW,Washington,DC,20001,81,Property Management Company,Ward 5,38.91219,-77.01197,4,4,0
"Cornerstone Bar Group, LLC dba the Pub and the People",North Capitol Street NE,"$85,000.00 ",2014,1648 North Capitol Street NW,Washington,DC,20002,72,Restaurant/Eatery,Ward 5,38.91236,-77.00931,19,19,0
El Camino,North Capitol Street NE,"$85,000.00 ",2014,108 Rhode Island Avenue NW,Washington,DC,20001,72,Restaurant/Eatery,Ward 5,38.91525,-77.01263,30,,30
"SEB, Inc. t/a Uncle Chip's Cookies",North Capitol Street NE,"$85,000.00 ",2014,1514 North Capitol Street NW,Washington,DC,20002,72,Restaurant/Eatery,Ward 5,38.91011,-77.00936,2,2,
"Big Bear Café, LLC",North Capitol Street NE,"$84,500.00 ",2015,1700 1st Street NW,Washington,DC,20001,72,Coffee Shop/Restaurant,Ward 5,38.91275,-77.01237,49,12,37
"AED, LLC dba Rustik Tavern",North Capitol Street NE,"$67,347.00 ",2015,84 T Street NW,Washington,DC,20001,72,Restaurant/Eatery,Ward 5,38.91542,-77.01184,83,31,52
"Zembaba, Inc. dba Capitol Food Mart",North Capitol Street NE,"$85,000.00 ",2016,1634 North Capitol Street NW,Washington,DC,20002,44-45,Food Market and Deli,Ward 5,38.91213,-77.00943,34,33,1
"Milk Cult, LLC",North Capitol Street NE,"$40,000.00 ",2016,85 Hanover Place NW,Washington,DC,20001,72,Ice Cream Retailer,Ward 5,38.9081,-77.01164,11,11,0
"Menomale, LLC",Rhode Island Avenue NE,"$11,950.00 ",2016,"2711 12th Street NE, Suite A",Washington,DC,20018,72,Restaurant,Ward 5,38.92485,-76.99015,24,8,16
Thai Orchid's Kitchen,Pennsylvania Avenue SE,"$57,000.00 ",2013,2314 Pennsylvania Avenue SE,Washington,DC,20020,72,Restaurant/Eatery,Ward 7,38.87434,-76.97168,5,,5
Earl Howard Studios,Pennsylvania Avenue SE,"$85,000.00 ",2014,2528 Pennsylvania Avenue SE,Washington,DC,20020,71,Photography Studio,Ward 7,38.8732,-76.96916,10,5,5
Kangaroo Auto Crew,Pennsylvania Avenue SE,"$50,000.00 ",2016,2251 Fairlawn Avenue SE,Washington,DC,20020,81,Auto body shop,Ward 7,38.87416,-76.97403,14,7,7
Lee's Flower and Card Shop Inc.,7th St NW/Georgia Avenue NW,"$47,500.00 ",2016,1026 U Street NW,Washington,DC,20010,44-45,Flower Store,Ward 1,38.91686,-77.02676,34,25,9
AA Enterprise,Rhode Island Avenue NE,"$73,000.00 ",2014,3010 Rhode Island Avenue NE,Washington,DC,20018,81,Auto Repair Services,Ward 5,38.934644,-76.96516,0,0,0
Tiana M. Peterson dba The Material World Boutique,Rhode Island Avenue NE,"$72,700.25 ",2014,2121 Rhode Island Avenue NE,Washington,DC,20018,44-45,Clothing Store,Ward 5,38.92976,-76.9741,9,3,6
"Crave, LLC dba Mess Hall",Rhode Island Avenue NE,"$85,000.00 ",2014,703 Edgewood Street NE,Washington,DC,20017,54,Culinary Incubator,Ward 5,38.92502,-76.99586,20,15,5
"Johnstone Wagithuku dba VMG Resources, LLC",Rhode Island Avenue NE,"$85,000.00 ",2014,2630 12th Street NE,Washington,DC,20018,54,Employment Services,Ward 5,38.92378,-76.99054,3,3,0
Good Food Markets LLC,Rhode Island Avenue NE,"$85,000.00 ",2014,2006 Rhode Island Avenue NE,Washington,DC,20018,44-45,Fresh Food/Grocery Market,Ward 5,38.92953,-76.97579,19,19,0
WS Jenks & Son dba Jenks Hardware,H Street NE - Bladensburg Road NE,"$85,000.00 ",2014,910 Bladensburg Road NE,Washington,DC,20002,44-45,Hardware Retail Store,Ward 5,38.90242,-76.98229,5,5,
P & G Counseling and Educational Institute,Rhode Island Avenue NE,"$84,995.00 ",2014,2218 Rhode Island Avenue NE,Washington,DC,20018,62,Health Services,Ward 5,38.93069,-76.97343,8,8,0
DC Dragons Martial Arts Training Center,Rhode Island Avenue NE,"$69,500.00 ",2014,1731 Rhode Island Avenue NE,Washington,DC,20018,71,Martial Arts Studio,Ward 5,38.92717,-76.97951,3,3,0
"S2 Development, LLC",Rhode Island Avenue NE,"$85,000.00 ",2014,475 K Street NW Suite 309,Washington,DC,20001,81,Real Estate Development,Ward 5,38.92534,-76.9832,0,0,0
ICHPROP,Rhode Island Avenue NE,"$85,000.00 ",2014,1601 Rhode Island Avenue NE,Washington,DC,20018,72,Restaurant/Eatery,Ward 5,38.9261,-76.9817,30,15,15
Nina Gilchrist dba Provost,Rhode Island Avenue NE,"$75,473.01 ",2014,2129 Rhode Island Avenue NE,Washington,DC,20018,72,Restaurant/Eatery,Ward 5,38.92985,-76.97389,51,25,26
Beauty Secrets Inc. dba The Avenue Day Spa,Rhode Island Avenue NE,"$85,000.00 ",2014,2125 Rhode Island Avenue NE,Washington,DC,20018,81,Salon/Barbershop,Ward 5,38.92982,-76.97401,12,6,6
"Access Green, LLC",Rhode Island Avenue NE,"$84,933.00 ",2015,"617 Rhode Island Avenue NE, Suite C",Washington,DC,20002,54,Energy Services,Ward 5,38.92056,-76.99726,16,3,13
Tom Litke dba 5 Points Business Center,Rhode Island Avenue NE,"$50,000.00 ",2016,2316 Rhode Island Avenue NE,Washington,DC,20018,54,Business Center,Ward 5,38.93095,-76.97292,26,17,9
"JLK3 Enterprises, LLC dba Zeke's Coffee of DC",Rhode Island Avenue NE,"$50,000.00 ",2016,2300 Rhode Island Avenue NE,Washington,DC,20018,72,Coffee Shop,Ward 5,38.93072,-76.97215,13,2,11
"Salumeria 2703, LLC dba Salumeria 2703",Rhode Island Avenue NE,"$9,750.00 ",2016,"2703 12th Street NE, Suite A",Washington,DC,20018,72,Deli,Ward 5,38.92462,-76.99014,7,7,0
"Sabby, Inc.dba Huacatay",Rhode Island Avenue NE,"$50,000.00 ",2016,2314 4th Street NE,Washington,DC,20002,72,Restaurant,Ward 5,38.92074,-77.00094,12,12,
The Bakers' Lounge Corp dba The Bakers' Lounge,Rhode Island Avenue NE,"$10,908.14 ",2016,2703 12th Street NE,Washington,DC,20018,44-45,Retail Store Bakery/Dessert Lounge,Ward 5,38.92462,-76.99014,7,7,0
Studio E-lan LLC dba Studio E-lan LLC,Rhode Island Avenue NE,"$30,000.00 ",2016,"405 Rhode Island Avenue, NE",Washington,DC,20002,81,Salon,Ward 5,38.91964,-77.0002,9,3,6
"Skynear & Co., Inc. dba Skynear & Co",U Street/14th Street NW,"$49,460.00 ",2016,2122 8th Street NW,Washington,DC,20009,44-45,Furniture and Design Store,Ward 1,38.91861,-77.04192,26,14,12
"Arbaiza's, Inc. dba Golden Scissors",U Street/14th Street NW,"$45,000.00 ",2016,3062 Mt Pleasant Street NW,Washington,DC,20010,81,Hair Salon,Ward 1,38.92842,-77.03751,17,9,8
The Mediterranean Spot & More LLC,U Street/14th Street NW,"$40,000.00 ",2016,1501 U Street NW,Washington,DC,20009,72,Restaurant,Ward 1,38.91715,-77.03477,13,7,6
"El Tamarindo, Inc. dba El Tamarindo",U Street/14th Street NW,"$37,500.00 ",2016,1785 Florida Avenue NW,Washington,DC,20009,72,Restaurant,Ward 1,38.91719,-77.04129,30,11,19
"Purple Patch, LLC dba Purple Patch Restaurant",U Street/14th Street NW,"$40,000.00 ",2016,3155 Mount Pleasant Street NW,Washington,DC,20010,72,Restaurant,Ward 1,38.93057,-77.03768,60,40,20
"Le Bustiere Boutique, LLC",U Street/14th Street NW,"$25,000.00 ",2016,"1744 Columbia Rd NW, Unit # 2",Washington,DC,20002,44-45,Retail,Ward 1,38.92383,-77.04047,8,5,3
"Rachel Joyce Studios, LLC dba Rachel Joyce Organic Salon",U Street/14th Street NW,"$18,477.00 ",2016,1754 Columbia Road NW #2,Washington,DC,20009,81,Salon,Ward 1,38.92365,-77.04068,16,12,4
,,,,,,,,,,,,,0,0,
